{
  "type": "FeatureCollection",
  "features": [
    {"type":"Feature","properties":{"name":"James Valentine Campbell","objectid_1":"2","objectid":"2","shape_leng":"460.267388776","address":"6625 W. Fort"},"geometry":{"type":"Point","coordinates":[-83.10740884487858,42.30460013004569]}},{"type":"Feature","properties":{"name":"Herbert Bowen","objectid_1":"1","objectid":"1","shape_leng":"610.575893267","address":"3648 W. Vernor"},"geometry":{"type":"Point","coordinates":[-83.08894041412334,42.32328040389013]}},{"type":"Feature","properties":{"name":"Chandler Park","objectid_1":"3","objectid":"3","shape_leng":"1127.22281022","address":"12800 Harper"},"geometry":{"type":"Point","coordinates":[-82.97437790167565,42.40156859065538]}},{"type":"Feature","properties":{"name":"Henry Chaney","objectid_1":"4","objectid":"4","shape_leng":"545.314628561","address":"16101 Grand River"},"geometry":{"type":"Point","coordinates":[-83.2053548225668,42.395204096585445]}},{"type":"Feature","properties":{"name":"Downtown Library","objectid_1":"6","objectid":"6","shape_leng":"819.042480594","address":"121 Gratiot"},"geometry":{"type":"Point","coordinates":[-83.0468776448296,42.333963352973484]}},{"type":"Feature","properties":{"name":"Edwin F. Conely","objectid_1":"5","objectid":"5","shape_leng":"887.414979873","address":"4600 Martin"},"geometry":{"type":"Point","coordinates":[-83.12730777767533,42.33192612572043]}},{"type":"Feature","properties":{"name":"Divie B. Duffield","objectid_1":"7","objectid":"7","shape_leng":"684.368197211","address":"2507 W Grand Blvd"},"geometry":{"type":"Point","coordinates":[-83.09333752963502,42.36330763713403]}},{"type":"Feature","properties":{"name":"Thomas A. Edison","objectid_1":"8","objectid":"8","shape_leng":"505.978478304","address":"18400 Joy Rd."},"geometry":{"type":"Point","coordinates":[-83.22049967642508,42.358093066742526]}},{"type":"Feature","properties":{"name":"Elmwood Park","objectid_1":"9","objectid":"9","shape_leng":"2273.43493156","address":"550 Chene"},"geometry":{"type":"Point","coordinates":[-83.0233587699621,42.34047315204276]}},{"type":"Feature","properties":{"name":"Benjamin Franklin","objectid_1":"10","objectid":"10","shape_leng":"496.852463077","address":"13651 E. McNichols"},"geometry":{"type":"Point","coordinates":[-82.98403802598973,42.427134761166954]}},{"type":"Feature","properties":{"name":"Bela Hubbard","objectid_1":"11","objectid":"11","shape_leng":"495.190086714","address":"12929 W. McNichols"},"geometry":{"type":"Point","coordinates":[-83.17283309238202,42.41638394131857]}},{"type":"Feature","properties":{"name":"Elisabeth Knapp","objectid_1":"12","objectid":"12","shape_leng":"1085.20397201","address":"13330 Conant"},"geometry":{"type":"Point","coordinates":[-83.06012200348957,42.41480617191481]}},{"type":"Feature","properties":{"name":"Main Library","objectid_1":"13","objectid":"13","shape_leng":"2552.12920568","address":"5201 Woodward"},"geometry":{"type":"Point","coordinates":[-83.06671060849577,42.358401536711455]}},{"type":"Feature","properties":{"name":"Francis Parkman","objectid_1":"14","objectid":"14","shape_leng":"833.927671916","address":"1766 Oakman Blvd"},"geometry":{"type":"Point","coordinates":[-83.12740128194397,42.396761284287265]}},{"type":"Feature","properties":{"name":"Redford","objectid_1":"15","objectid":"15","shape_leng":"733.119241647","address":"21200 Grand River"},"geometry":{"type":"Point","coordinates":[-83.2492511870453,42.413580149115866]}},{"type":"Feature","properties":{"name":"Laura Ingalls Wilder","objectid_1":"17","objectid":"17","shape_leng":"645.507524709","address":"7140 E. 7 Mile"},"geometry":{"type":"Point","coordinates":[-83.02977435555528,42.43363660504726]}},{"type":"Feature","properties":{"name":"Sherwood Forest","objectid_1":"16","objectid":"16","shape_leng":"621.908667846","address":"7117 W. 7 Mile"},"geometry":{"type":"Point","coordinates":[-83.14417393035808,42.43127289218781]}},{"type":"Feature","properties":{"name":"Jefferson","objectid_1":"18","objectid":"18","shape_leng":"531.779128266","address":"12350 E. Outer Drive"},"geometry":{"type":"Point","coordinates":[-82.93737499175475,42.404016215551074]}},{"type":"Feature","properties":{"name":"Douglass","objectid_1":"19","objectid":"19","shape_leng":"1383.41012103","address":"3666 Grand River"},"geometry":{"type":"Point","coordinates":[-83.07422447595924,42.34310550011011]}},{"type":"Feature","properties":{"name":"Jessie C. Chase","objectid_1":"20","objectid":"20","shape_leng":"625.883527428","address":"17731 W 7 Mile"},"geometry":{"type":"Point","coordinates":[-83.21764330161865,42.4297826119116]}}]
}
